_id,id_amat,stato,numero,nome,tipo,stalli,sede,id_via,indirizzo,civico,zd_attuale,anno,LONG_X_4326,LAT_Y_4326,Location
1,1,attiva,001,Duomo,Monofacciale,24,Carreggiata,1,PIAZZA DEL DUOMO,"",1,2008,9.18914146264194,45.4647459734151,"(45.4647459734151, 9.18914146264194)"
2,3,attiva,402,San Babila Bis,Monofacciale,24,Marciapiede,216,PIAZZA SAN BABILA,"",1,2008,9.19725017347506,45.4662661365004,"(45.4662661365004, 9.19725017347506)"
3,4,attiva,003,Cadorna 1,Monofacciale,21,Marciapiede,601,PIAZZALE LUIGI CADORNA,"",1,2008,9.17566167305518,45.4680028649026,"(45.4680028649026, 9.17566167305518)"
4,5,attiva,004,Lanza,Monofacciale,24,Marciapiede,726,LARGO ANTONIO GREPPI,"",1,2008,9.18197005904563,45.4722739800244,"(45.4722739800244, 9.18197005904563)"
5,6,attiva,005,Universita' Cattolica,Monofacciale,24,Marciapiede,643,PIAZZA SANT'AMBROGIO,"",1,2008,9.17641155359659,45.4631209673857,"(45.4631209673857, 9.17641155359659)"
6,7,attiva,006,San Giorgio,Bifacciale,24,Marciapiede,581,PIAZZA SAN GIORGIO,"",1,2008,9.1836660585883,45.4608878808721,"(45.4608878808721, 9.1836660585883)"
7,8,attiva,007,Santa Maria Beltrade,Monofacciale,24,Marciapiede,514,PIAZZA SANTA MARIA BELTRADE,"",1,2008,9.18674532661153,45.4628482499764,"(45.4628482499764, 9.18674532661153)"
8,9,attiva,008,Velasca,Monofacciale,24,Marciapiede,335,PIAZZA VELASCA,"",1,2008,9.19029606587834,45.4601004266848,"(45.4601004266848, 9.19029606587834)"
9,10,attiva,009,S. Stefano,Monofacciale,18,Marciapiede,354,PIAZZA SANTO STEFANO,"",1,2008,9.19523943428229,45.4623701589561,"(45.4623701589561, 9.19523943428229)"
10,11,attiva,010,Missori,Monofacciale,21,Marciapiede,525,PIAZZA GIUSEPPE MISSORI,"",1,2008,9.18824619107113,45.4613185926076,"(45.4613185926076, 9.18824619107113)"
11,12,attiva,011,Castello - Acquario civico,Monofacciale,18,Marciapiede,7098,VIALE GADIO,"",1,2008,9.17931955959552,45.4725170134931,"(45.4725170134931, 9.17931955959552)"
12,13,attiva,012,"San Lorenzo - ""Colonne""",Monofacciale,24,Marciapiede,549,VIA PIO IV,"",1,2008,9.18162695308975,45.4586034459982,"(45.4586034459982, 9.18162695308975)"
13,14,attiva,013,Senato,Monofacciale,18,Marciapiede,263,VIA SENATO - INTERSEZIONE VIA MARINA,"",1,2008,9.19753424893044,45.470505931763,"(45.470505931763, 9.19753424893044)"
14,15,attiva,014,San Barnaba H Mangiagalli,Monofacciale,21,Marciapiede,3010,VIA SAN BARNABA,"",1,2008,9.19844769773138,45.4595137452707,"(45.4595137452707, 9.19844769773138)"
15,16,attiva,015,Cantore,Monofacciale,24,Marciapiede,5103,PIAZZALE ANTONIO CANTORE,"",6,2008,9.17267437155535,45.4558736615522,"(45.4558736615522, 9.17267437155535)"
16,17,attiva,016,Moscova,Bifacciale,24,Marciapiede,1033,LARGO LA FOPPA,"",1,2009,9.18453382760901,45.4775449862609,"(45.4775449862609, 9.18453382760901)"
17,18,attiva,017,Legnano Arena civica,Monofacciale,18,Marciapiede,7082,VIA LEGNANO,"",1,2008,9.18088607916875,45.4771483210653,"(45.4771483210653, 9.18088607916875)"
18,19,attiva,018,Tommaseo,Monofacciale,24,Marciapiede,6175,PIAZZA NICOLO' TOMMASEO,"",1,2008,9.16665200748942,45.4695563984612,"(45.4695563984612, 9.16665200748942)"
19,21,attiva,019,Italia - Santa Sofia,Monofacciale,24,Marciapiede,526,CORSO ITALIA,"",1,2008,9.18744983532436,45.4557418435866,"(45.4557418435866, 9.18744983532436)"
20,22,attiva,020,Erculea,Monofacciale,21,Marciapiede,409,PIAZZA ERCULEA,"",1,2008,9.18964481899844,45.4590957965275,"(45.4590957965275, 9.18964481899844)"
21,23,attiva,021,Universita' Bocconi,Monofacciale,24,Marciapiede,4050,VIA FERDINANDO BOCCONI,"",5,2008,9.19040924007088,45.4486325673032,"(45.4486325673032, 9.19040924007088)"
22,24,attiva,022,Medaglie d'Oro 1,Monofacciale,21,Marciapiede,4068,CORSO LODI,"",4,2008,9.20335042234348,45.4516120194936,"(45.4516120194936, 9.20335042234348)"
23,25,attiva,023,Regina Margherita,Monofacciale,24,Marciapiede,3059,VIALE REGINA MARGHERITA,"",1,2008,9.20530076670099,45.458250471922,"(45.458250471922, 9.20530076670099)"
24,27,attiva,024,Tricolore,Monofacciale,24,Marciapiede,3047,PIAZZA DEL TRICOLORE,"",1,2008,9.2060225655432,45.4678144793748,"(45.4678144793748, 9.2060225655432)"
25,28,attiva,025,Centrale 1,Monofacciale,24,Marciapiede,1200,PIAZZA DUCA D'AOSTA - LATO SX,"",2,2008,9.20249256366147,45.4854101879474,"(45.4854101879474, 9.20249256366147)"
26,29,attiva,026,Centrale 2,Monofacciale,24,Marciapiede,1200,PIAZZA DUCA D'AOSTA - LATO DX,"",2,2008,9.20424424701197,45.4845393174548,"(45.4845393174548, 9.20424424701197)"
27,30,attiva,027,Porta Venezia,Bifacciale,24,Marciapiede,2106,BASTIONI DI PORTA VENEZIA,"",1,2008,9.20453150777939,45.4746355492469,"(45.4746355492469, 9.20453150777939)"
28,31,attiva,028,San Giovanni sul Muro,Bifacciale,24,Marciapiede,727,LARGO MARIA CALLAS,"",1,2008,9.18143258067882,45.4675657052945,"(45.4675657052945, 9.18143258067882)"
29,32,attiva,029,San Pietro in Gessate,Monofacciale,24,Marciapiede,3016,CORSO DI PORTA VITTORIA,"",1,2008,9.20139318404946,45.4623917403907,"(45.4623917403907, 9.20139318404946)"
30,33,attiva,030,Crocetta,Monofacciale,21,Marciapiede,654,LARGO DELLA CROCETTA,"",1,2008,9.19571751984613,45.4562244456914,"(45.4562244456914, 9.19571751984613)"
31,34,attiva,031,Brenta MM,Bifacciale,36,Marciapiede,4171,VIALE BACCHIGLIONE - INTERSEZIONE CORSO LODI,"",4,2014,9.21929618593966,45.4426816786502,"(45.4426816786502, 9.21929618593966)"
32,36,attiva,032,Manin - Bastioni,Monofacciale,30,Carreggiata,1052,VIA DANIELE MANIN,"",1,2008,9.19831572335418,45.4768598349889,"(45.4768598349889, 9.19831572335418)"
33,37,attiva,033,Triennale,Monofacciale,24,Marciapiede,7106,VIALE EMILIO ALEMAGNA,"",1,2008,9.17365222212234,45.471813906155,"(45.471813906155, 9.17365222212234)"
34,38,attiva,034,Cairoli,Monofacciale,21,Carreggiata,609,VIA SAN GIOVANNI SUL MURO,1,1,2008,9.18215375148315,45.4676530174474,"(45.4676530174474, 9.18215375148315)"
35,39,attiva,035,Torino - Carrobbio,Monofacciale,21,Marciapiede,543,VIA TORINO,79,1,2008,9.18188332228105,45.4604909904862,"(45.4604909904862, 9.18188332228105)"
36,40,attiva,036,San Vito,Monofacciale,24,Marciapiede,539,VIA SAN VITO,"",1,2008,9.18372934798514,45.4592409041432,"(45.4592409041432, 9.18372934798514)"
37,41,attiva,037,Italia - San Martino,Monofacciale,24,Marciapiede,526,CORSO ITALIA,"",1,2008,9.18697241044836,45.4531611964618,"(45.4531611964618, 9.18697241044836)"
38,42,attiva,038,XXIV Maggio,Bifacciale,24,Marciapiede,5200,PIAZZA VENTIQUATTRO MAGGIO,"",5,2009,9.17955442498304,45.4522205956888,"(45.4522205956888, 9.17955442498304)"
39,43,attiva,039,XXV Aprile,Bifacciale,24,Marciapiede,1010,CORSO GARIBALDI,"",1,2008,9.18667417407879,45.4801729977745,"(45.4801729977745, 9.18667417407879)"
40,44,attiva,040,Morozzo della Rocca,Monofacciale,24,Carreggiata,6215,VIA MOROZZO DELLA ROCCA,"",1,2008,9.16893363778208,45.463971623871,"(45.463971623871, 9.16893363778208)"
41,45,attiva,041,Conciliazione,Monofacciale,18,Marciapiede,6178,PIAZZA DELLA CONCILIAZIONE,"",1,2008,9.16696608859796,45.4677127611873,"(45.4677127611873, 9.16696608859796)"
42,46,attiva,042,San Pietro all'Orto,Monofacciale,24,Carreggiata,213,VIA SAN PIETRO ALL'ORTO,"",1,2008,9.19557288584942,45.4662049385805,"(45.4662049385805, 9.19557288584942)"
43,47,attiva,043,Festa del Perdono,Monofacciale,24,Marciapiede,327,VIA FESTA DEL PERDONO,"",1,2008,9.19477082446851,45.4614058803677,"(45.4614058803677, 9.19477082446851)"
44,48,attiva,044,Richini,Monofacciale,24,Marciapiede,331,LARGO FRANCESCO RICHINI,"",1,2008,9.19301237029976,45.4594363384397,"(45.4594363384397, 9.19301237029976)"
45,49,attiva,045,Cantu',Monofacciale,21,Marciapiede,573,VIA CESARE CANTU',4,1,2008,9.18666064842153,45.4641772256409,"(45.4641772256409, 9.18666064842153)"
46,50,attiva,046,Porta Nuova,Monofacciale,24,Marciapiede,1061,PIAZZALE PRINCIPESSA CLOTILDE,"",9,2008,9.1928366822404,45.4800400879457,"(45.4800400879457, 9.1928366822404)"
47,51,attiva,047,Gorizia 1,Monofacciale,24,Marciapiede,5156,VIALE GORIZIA,"",6,2008,9.1775219708562,45.4523249723112,"(45.4523249723112, 9.1775219708562)"
48,52,attiva,048,Gorizia 2,Monofacciale,21,Marciapiede,5156,VIALE GORIZIA,"",6,2008,9.17762495092264,45.4522159171895,"(45.4522159171895, 9.17762495092264)"
49,53,attiva,049,Meda,Monofacciale,24,Carreggiata,212,VIA SAN PAOLO,"",1,2008,9.19306081939228,45.4663964944757,"(45.4663964944757, 9.19306081939228)"
50,54,attiva,050,Beccaria,Monofacciale,24,Carreggiata,306,PIAZZA CESARE BECCARIA,"",1,2008,9.19466659425635,45.464388497846,"(45.464388497846, 9.19466659425635)"
51,55,attiva,051,Santa Maria delle Grazie,Monofacciale,24,Carreggiata,6163,VIA FRATELLI RUFFINI,"",1,2008,9.16962083000828,45.4667167642863,"(45.4667167642863, 9.16962083000828)"
52,56,attiva,052,Vittor Pisani,Monofacciale,24,Marciapiede,1201,VIA VITTOR PISANI,2,2,2008,9.1992123148604,45.4805077955683,"(45.4805077955683, 9.1992123148604)"
53,57,attiva,053,Palestro 1,Monofacciale,24,Carreggiata,2102,VIA PALESTRO,"",1,2008,9.2018319254924,45.4722871789585,"(45.4722871789585, 9.2018319254924)"
54,58,attiva,054,Sant'Eustorgio - P.ta Ticinese,Monofacciale,24,Carreggiata,541,CORSO DI PORTA TICINESE,"",1,2008,9.18083834052123,45.4551905595589,"(45.4551905595589, 9.18083834052123)"
55,59,attiva,055,Cinque Giornate,Monofacciale,24,Carreggiata,3053,PIAZZA CINQUE GIORNATE,"",1,2008,9.20701931913115,45.4626690482732,"(45.4626690482732, 9.20701931913115)"
56,60,attiva,056,Bastioni di Porta Venezia,Monofacciale,24,Carreggiata,2715,VIALE CITTA' DI FIUME,"",1,2008,9.20050143838774,45.4759730884453,"(45.4759730884453, 9.20050143838774)"
57,61,attiva,057,Brera,Monofacciale,24,Marciapiede,122,VIA BRERA,"",1,2008,9.1876412490686,45.4715912829841,"(45.4715912829841, 9.1876412490686)"
58,62,attiva,058,Sant'Agostino,Monofacciale,24,Carreggiata,6230,VIA NUMA POMPILIO,"",1,2008,9.16956176250093,45.4589836722327,"(45.4589836722327, 9.16956176250093)"
59,63,attiva,059,Palestro 2,Monofacciale,24,Carreggiata,2102,VIA PALESTRO,"",1,2008,9.20157581411728,45.4724170820501,"(45.4724170820501, 9.20157581411728)"
60,64,attiva,060,Edison,Monofacciale,24,Carreggiata,629,VIA DELLA POSTA,8,1,2008,9.18351452172418,45.4643338416991,"(45.4643338416991, 9.18351452172418)"
61,66,attiva,061,Augusto,Monofacciale,24,Carreggiata,315,LARGO AUGUSTO,"",1,2008,9.19839115246277,45.4632558423298,"(45.4632558423298, 9.19839115246277)"
62,67,attiva,062,Treves,Monofacciale,24,Carreggiata,1026,LARGO CLAUDIO TREVES,"",1,2008,9.18678789945446,45.4750450086761,"(45.4750450086761, 9.18678789945446)"
63,70,attiva,065,Bertarelli,Monofacciale,24,Carreggiata,584,PIAZZA LUIGI VITTORIO BERTARELLI,"",1,2008,9.18749324962753,45.4585868687334,"(45.4585868687334, 9.18749324962753)"
64,71,attiva,066,Cavour,Monofacciale,27,Marciapiede,237,PIAZZA CAVOUR,"",1,2008,9.19634051699222,45.4730162025715,"(45.4730162025715, 9.19634051699222)"
65,72,attiva,067,Repubblica,Monofacciale,24,Carreggiata,1055,PIAZZA DELLA REPUBBLICA,"",2,2008,9.19654525393701,45.4790811052925,"(45.4790811052925, 9.19654525393701)"
66,73,attiva,068,Rotonda della Besana,Monofacciale,24,Carreggiata,3057,VIA EMILIO VISCONTI VENOSTA - INTERSEZIONE VIA ENRICO BESANA,1,1,2008,9.20544600774666,45.4606047447182,"(45.4606047447182, 9.20544600774666)"
67,74,attiva,069,S. Nazaro in Brolo,Bifacciale,24,Marciapiede,353,PIAZZA SAN NAZARO IN BROLO,"",1,2009,9.19264470604849,45.4583022092336,"(45.4583022092336, 9.19264470604849)"
68,75,attiva,070,Fatebenefratelli,Monofacciale,30,Marciapiede,144,VIA FATEBENEFRATELLI,"",1,2008,9.19011422278682,45.4731500885781,"(45.4731500885781, 9.19011422278682)"
69,76,attiva,071,Medaglie d'Oro 2,Bifacciale,18,Marciapiede,4068,CORSO LODI - INTERSEZIONE PIAZZALE MEDAGLIE D'ORO,"",4,2009,9.20300063645409,45.4518484608756,"(45.4518484608756, 9.20300063645409)"
70,77,attiva,072,Cardinal Ferrari,Monofacciale,21,Carreggiata,4014,VIA SAN CALIMERO,"",1,2008,9.19276821062691,45.4567089303362,"(45.4567089303362, 9.19276821062691)"
71,78,attiva,073,Majno - Baretti,Monofacciale,24,Carreggiata,2176,VIA GIUSEPPE BARETTI,"",1,2009,9.20491361564011,45.4714975993172,"(45.4714975993172, 9.20491361564011)"
72,79,attiva,074,Dante - San Tomaso,Monofacciale,15,Carreggiata,723,VIA SAN TOMASO,"",1,2009,9.18408077662606,45.4670760525983,"(45.4670760525983, 9.18408077662606)"
73,80,attiva,075,Cusani,Bifacciale,24,Marciapiede,719,VIA CUSANI,"",1,2009,9.18500603358196,45.4687496188803,"(45.4687496188803, 9.18500603358196)"
74,81,attiva,076,Mentana,Bifacciale,24,Marciapiede,560,PIAZZA MENTANA,"",1,2009,9.1819568612882,45.4617789971663,"(45.4617789971663, 9.1819568612882)"
75,82,attiva,077,Sant'Angelo - P.ta Nuova,Monofacciale,24,Carreggiata,1044,CORSO DI PORTA NUOVA,"",1,2009,9.19180363864134,45.4767277123014,"(45.4767277123014, 9.19180363864134)"
76,83,attiva,078,Aquileia,Monofacciale,24,Marciapiede,6205,PIAZZALE AQUILEIA,"",7,2009,9.16337125843968,45.4608561959507,"(45.4608561959507, 9.16337125843968)"
77,84,attiva,079,Baracca,Monofacciale,24,Marciapiede,6180,PIAZZALE FRANCESCO BARACCA,"",1,2009,9.1654917379883,45.4667126686259,"(45.4667126686259, 9.1654917379883)"
78,85,attiva,080,Manzoni,Monofacciale,24,Carreggiata,147,PIAZZA SANT'ERASMO,"",1,2009,9.19238958172029,45.4712411794237,"(45.4712411794237, 9.19238958172029)"
79,86,attiva,081,Universita' Bocconi 2 - Bach,Monofacciale,30,Marciapiede,4203,VIALE GIOVANNI SEBASTIANO BACH,"",5,2009,9.19090907178913,45.4482792437515,"(45.4482792437515, 9.19090907178913)"
80,87,attiva,082,Dell'Umanitaria,Monofacciale,24,Carreggiata,3148,PIAZZA UMANITARIA,"",1,2009,9.20062949637532,45.4581592054213,"(45.4581592054213, 9.20062949637532)"
81,89,attiva,083,Rastrelli - Pecorari,Monofacciale,24,Carreggiata,324,VIA RASTRELLI,"",1,2009,9.19104241813533,45.4623558238128,"(45.4623558238128, 9.19104241813533)"
82,90,attiva,084,Cadorna 2,Monofacciale,24,Marciapiede,706,VIA PIETRO PALEOCAPA,"",1,2009,9.1761617927035,45.4690435896559,"(45.4690435896559, 9.1761617927035)"
83,91,attiva,085,D'Ancona,Monofacciale,21,Carreggiata,645,VIA BERNARDINO BUTTINONE,"",1,2009,9.1758064833894,45.465702722018,"(45.465702722018, 9.1758064833894)"
84,92,attiva,086,Mascagni,Bifacciale,24,Marciapiede,3034,VIA VINCENZO BELLINI - INTERSEZIONE VIA CONSERVATORIO,"",1,2009,9.20311544438376,45.4653970789922,"(45.4653970789922, 9.20311544438376)"
85,93,attiva,087,Porta Genova,Monofacciale,27,Carreggiata,5120,PIAZZALE STAZIONE GENOVA,"",6,2012,9.16963851975668,45.452907382235,"(45.452907382235, 9.16963851975668)"
86,94,attiva,088,Beatrice d'Este - Cassolo,Monofacciale,24,Marciapiede,4038,VIALE ANGELO FILIPPETTI,"",1,2009,9.19756632637691,45.4522281453522,"(45.4522281453522, 9.19756632637691)"
87,95,attiva,089,Patellani,Bifacciale,24,Carreggiata,4009,VIA CARLO PATELLANI - INTERSEZIONE VIA BEATRICE D'ESTE,36,5,2009,9.19415243714796,45.4516663065257,"(45.4516663065257, 9.19415243714796)"
88,96,attiva,090,Gioia - Vespucci,Bifacciale,24,Marciapiede,1108,VIA MELCHIORRE GIOIA,"",9,,9.19167000740838,45.4813927219471,"(45.4813927219471, 9.19167000740838)"
89,97,attiva,091,Gioia - Pirelli,Bifacciale,24,Marciapiede,1195,VIA GIOVANNI BATTISTA PIRELLI - INTERSEZIONE PIAZZA LUIGI EINAUDI,"",9,2009,9.19590245563336,45.4840427576122,"(45.4840427576122, 9.19590245563336)"
90,98,attiva,092,Cordusio - Casati,Monofacciale,30,Carreggiata,625,VIA GABRIO CASATI,"",1,2009,9.18550651064368,45.4654854968164,"(45.4654854968164, 9.18550651064368)"
91,99,attiva,093,Borgogna,Monofacciale,30,Carreggiata,301,VIA BORGOGNA,7,1,2009,9.19978661686941,45.465844049864,"(45.465844049864, 9.19978661686941)"
92,100,attiva,094,Cadorna 3,Bifacciale,30,Marciapiede,601,PIAZZALE LUIGI CADORNA,"",1,2012,9.17626278083025,45.4680710993719,"(45.4680710993719, 9.17626278083025)"
93,101,attiva,095,De Amicis - Conca Del Naviglio,Monofacciale,21,Marciapiede,574,VIA EDMONDO DE AMICIS,23,1,2009,9.17864909435831,45.4582844864473,"(45.4582844864473, 9.17864909435831)"
94,103,attiva,096,"Donizzetti ""Provincia""",Monofacciale,24,Carreggiata,3030,VIA GAETANO DONIZETTI,"",1,2009,9.20445646688143,45.4673355376899,"(45.4673355376899, 9.20445646688143)"
95,105,attiva,097,Molino delle Armi,Monofacciale,30,Marciapiede,591,VIA MOLINO DELLE ARMI,"",1,2009,9.18232795432304,45.4569941558023,"(45.4569941558023, 9.18232795432304)"
96,106,attiva,098,San Marco,Monofacciale,24,Carreggiata,1036,VIA SAN MARCO,"",1,2009,9.18923664839683,45.4787687300196,"(45.4787687300196, 9.18923664839683)"
97,107,attiva,099,Arco della Pace 1 - Bertani,Monofacciale,24,Marciapiede,7112,VIA AGOSTINO BERTANI,"",1,2009,9.17344894756284,45.4762001620338,"(45.4762001620338, 9.17344894756284)"
98,108,attiva,100,Palazzo Marino - Caserotte,Monofacciale,36,Carreggiata,197,LARGO RAFFAELE MATTIOLI,"",1,2012,9.19134934468477,45.4667660334144,"(45.4667660334144, 9.19134934468477)"
99,109,attiva,101,Gadio - Paleocapa,Monofacciale,30,Marciapiede,7098,VIALE GADIO,"",1,2009,9.17563661533558,45.4700860948513,"(45.4700860948513, 9.17563661533558)"
100,110,attiva,102,Arcivescovado,Monofacciale,24,Carreggiata,364,VIA CARLO MARIA MARTINI,"",1,2009,9.19315308785642,45.4637941812566,"(45.4637941812566, 9.19315308785642)"
101,111,attiva,103,Arco della Pace 2 - Pagano,Monofacciale,24,Marciapiede,7111,PIAZZA SEMPIONE - INTERSEZIONE VIA MARIO PAGANO,"",1,2009,9.17165611710774,45.4750360320832,"(45.4750360320832, 9.17165611710774)"
102,112,attiva,104,"M. Gioia - ""Regione""",Monofacciale,36,Carreggiata,1108,VIA MELCHIORRE GIOIA,1,9,2011,9.19680009901588,45.4861564317595,"(45.4861564317595, 9.19680009901588)"
103,113,attiva,105,Piazzale Lodi,Monofacciale,33,Marciapiede,4249,PIAZZALE LODI - INTERSEZIONE CORSO LODI,"",4,2011,9.20990598336662,45.4477485629867,"(45.4477485629867, 9.20990598336662)"
104,114,attiva,106,Restelli - Galvani RL 1,Bifacciale,36,Marciapiede,1163,VIALE FRANCESCO RESTELLI,"",9,2012,9.19463367431522,45.4873063421315,"(45.4873063421315, 9.19463367431522)"
105,115,attiva,107,S. Gioachimo,Monofacciale,39,Marciapiede,1102,VIA GALILEO GALILEI,"",9,2012,9.19701044940359,45.4808761696072,"(45.4808761696072, 9.19701044940359)"
106,116,attiva,108,Tunisia - Cozzi,Monofacciale,27,Marciapiede,2121,VIALE TUNISIA,"",2,2011,9.20157605827651,45.4789654244469,"(45.4789654244469, 9.20157605827651)"
107,117,attiva,109,Tunisia Lecco Bellintani,Monofacciale,30,Marciapiede,2124,LARGO FRA PAOLO BELLINTANI,"",3,2013,9.20475566650323,45.4774609285355,"(45.4774609285355, 9.20475566650323)"
108,118,attiva,110,S. F. Romana,Monofacciale,36,Marciapiede,2183,PIAZZA SANTA FRANCESCA ROMANA,"",3,2012,9.20849477586325,45.4763382031091,"(45.4763382031091, 9.20849477586325)"
109,119,attiva,111,B. Marcello - Boscovich,Monofacciale,36,Marciapiede,2128,VIA BENEDETTO MARCELLO - INTERSEZIONE VIA RUGGERO BOSCOVICH,"",3,2013,9.20755217712878,45.4802216083428,"(45.4802216083428, 9.20755217712878)"
110,120,attiva,112,Napo Torriani De Lellis,Monofacciale,27,Carreggiata,2126,VIA NAPO TORRIANI,"",2,2011,9.2032265400917,45.4825354496047,"(45.4825354496047, 9.2032265400917)"
111,121,attiva,113,Buenos Aires - Lima,Bifacciale,24,Marciapiede,2135,PIAZZA LIMA,"",3,2012,9.21136641614659,45.4803697506539,"(45.4803697506539, 9.21136641614659)"
112,122,attiva,114,Buenos Aires - Argentina,Bifacciale,36,Marciapiede,2233,PIAZZA ARGENTINA,"",3,2012,9.21476503432634,45.4838137754708,"(45.4838137754708, 9.21476503432634)"
113,123,attiva,115,Caiazzo,Bifacciale,36,Marciapiede,2259,PIAZZA CAIAZZO,"",2,2013,9.20914188800021,45.4852544746166,"(45.4852544746166, 9.20914188800021)"
114,124,attiva,116,Morgagni - Redi,Monofacciale,24,Carreggiata,2149,VIA FRANCESCO REDI - INTERSEZIONE VIA GIOVANNI BATTISTA MORGAGNI,"",3,2012,9.21187964593789,45.477850743725,"(45.477850743725, 9.21187964593789)"
115,125,attiva,117,Bacone - Monteverdi,Monofacciale,36,Marciapiede,2237,VIA CLAUDIO MONTEVERDI - INTERSEZIONE PIAZZALE BACONE,"",3,2013,9.21493505113988,45.481473385322,"(45.481473385322, 9.21493505113988)"
116,126,attiva,118,VIII novembre - Ramazzini,Monofacciale,36,Carreggiata,2161,VIA BERNARDINO RAMAZZINI - INTERSEZIONE PIAZZA OTTO NOVEMBRE,"",3,2012,9.21115780755742,45.4750978970309,"(45.4750978970309, 9.21115780755742)"
117,127,attiva,119,Settembrini - Vitruvio,Monofacciale,33,Carreggiata,2127,VIA LUIGI SETTEMBRINI,"",3,2012,9.2069119040996,45.4825541034042,"(45.4825541034042, 9.2069119040996)"
118,128,attiva,120,F. Filzi,Monofacciale,30,Marciapiede,1190,VIA FABIO FILZI,20,2,2011,9.20042321771546,45.4844537922714,"(45.4844537922714, 9.20042321771546)"
119,129,attiva,121,Melchiorre Gioia - Galvani,Monofacciale,27,Marciapiede,1108,VIA MELCHIORRE GIOIA - INTERSEZIONE VIA LUIGI GALVANI,"",9,2013,9.19795936478005,45.4866935891275,"(45.4866935891275, 9.19795936478005)"
120,130,attiva,122,Bassini - Grossich,Monofacciale,36,Marciapiede,2587,VIA EDOARDO BASSINI - INTERSEZIONE VIA ANTONIO GROSSICH,"",3,2014,9.23488626783272,45.4809411379215,"(45.4809411379215, 9.23488626783272)"
121,131,attiva,123,Castel Morrone - M.A. di Savoia,Monofacciale,36,Marciapiede,3185,VIA CASTEL MORRONE,35,3,2012,9.21457606056587,45.4725794999658,"(45.4725794999658, 9.21457606056587)"
122,132,attiva,124,Porta Venezia 2,Monofacciale,36,Marciapiede,2108,PIAZZA GUGLIELMO OBERDAN,"",3,2012,9.20511734445585,45.4750741000865,"(45.4750741000865, 9.20511734445585)"
123,133,attiva,125,Fratelli Bandiera,Monofacciale,36,Marciapiede,3182,PIAZZA FRATELLI BANDIERA,2,3,2012,9.2105391293119,45.4705455146574,"(45.4705455146574, 9.2105391293119)"
124,134,attiva,126,Modena - Castel Morrone,Monofacciale,36,Carreggiata,3122,VIA GUSTAVO MODENA,15,3,2012,9.21424528011971,45.4708567009812,"(45.4708567009812, 9.21424528011971)"
125,135,attiva,127,Risorgimento,Monofacciale,36,Marciapiede,3117,PIAZZA RISORGIMENTO,"",3,2012,9.21077866964668,45.4681594231859,"(45.4681594231859, 9.21077866964668)"
126,136,attiva,128,Indipendenza - Castel Morrone,Monofacciale,36,Carreggiata,3118,CORSO INDIPENDENZA - INTERSEZIONE VIA CASTEL MORRONE,"",3,2012,9.21434294218204,45.4682797929447,"(45.4682797929447, 9.21434294218204)"
127,137,attiva,129,Fiamma,Monofacciale,36,Carreggiata,3079,VIA GALVANO FIAMMA,18,4,2012,9.2113794299691,45.464603663579,"(45.464603663579, 9.2113794299691)"
128,138,attiva,130,XXII Marzo,Monofacciale,36,Marciapiede,3074,CORSO VENTIDUE MARZO,"",4,2011,9.21247392803793,45.4621587143397,"(45.4621587143397, 9.21247392803793)"
129,139,attiva,131,Emilia - Piceno,Monofacciale,36,Carreggiata,3113,PIAZZA EMILIA - INTERSEZIONE CORSO VENTIDUE MARZO,1,4,2012,9.2160685308363,45.4625087286816,"(45.4625087286816, 9.2160685308363)"
130,140,attiva,132,Bronzetti - Archimede,Monofacciale,36,Marciapiede,3089,VIA FRATELLI BRONZETTI - INTERSEZIONE VIA ARCHIMEDE,20,4,2012,9.21458261323103,45.4653250655976,"(45.4653250655976, 9.21458261323103)"
131,141,attiva,133,Dateo,Bifacciale,36,Marciapiede,3119,PIAZZALE DATEO,"",3,2012,9.21665548983287,45.4684480627865,"(45.4684480627865, 9.21665548983287)"
132,142,attiva,134,Teodosio - Porpora,Monofacciale,30,Marciapiede,2550,VIA TEODOSIO - INTERSEZIONE VIA NICOLA ANTONIO PORPORA,52,3,2016,9.23002197139511,45.4863651794373,"(45.4863651794373, 9.23002197139511)"
133,143,attiva,135,Muratori - Umbria,Monofacciale,30,Marciapiede,4076,VIA LODOVICO MURATORI - INTERSEZIONE VIALE UMBRIA,"",4,2013,9.21233242700334,45.4508551651902,"(45.4508551651902, 9.21233242700334)"
134,144,attiva,136,Monte Nero - Spartaco,Monofacciale,27,Marciapiede,3062,VIALE MONTE NERO,"",4,2011,9.20767433813961,45.460141934322,"(45.460141934322, 9.20767433813961)"
135,145,attiva,137,Sempione - RAI,Monofacciale,36,Carreggiata,7137,CORSO SEMPIONE,"",8,2012,9.16672518845884,45.4794771062934,"(45.4794771062934, 9.16672518845884)"
136,146,attiva,138,Cadore - Pinaroli,Bifacciale,36,Marciapiede,3077,VIA CADORE,"",4,2013,9.21313248692476,45.4583046888383,"(45.4583046888383, 9.21313248692476)"
137,147,attiva,139,Lazio - Vasari - Morosini,Monofacciale,30,Marciapiede,4070,VIA GIORGIO VASARI - INTERSEZIONE VIALE LAZIO,"",4,2012,9.20804685949039,45.4552395450341,"(45.4552395450341, 9.20804685949039)"
138,148,attiva,140,Cirene - Friuli,Monofacciale,24,Marciapiede,3199,VIA FRIULI - INTERSEZIONE VIALE CIRENE,"",4,2013,9.21248127208611,45.453441380199,"(45.453441380199, 9.21248127208611)"
139,149,attiva,141,Caldara - Curtatone,Bifacciale,24,Marciapiede,4036,VIALE EMILIO CALDARA,"",1,2011,9.20293228663047,45.4551483243565,"(45.4551483243565, 9.20293228663047)"
140,150,attiva,142,Tiraboschi - Muratori,Monofacciale,27,Marciapiede,4072,VIA GEROLAMO TIRABOSCHI,4,4,2014,9.20868998917877,45.452224397063,"(45.452224397063, 9.20868998917877)"
141,151,attiva,143,Lodi - Papi,Monofacciale,21,Marciapiede,4071,VIA LAZZARO PAPI,"",4,2011,9.20675529374742,45.4499619625557,"(45.4499619625557, 9.20675529374742)"
142,152,attiva,144,Brescia,Monofacciale,36,Marciapiede,6554,PIAZZALE BRESCIA - INTERSEZIONE VIA ALESSANDRO MAGNASCO,"",7,2014,9.14542510702829,45.4716011230363,"(45.4716011230363, 9.14542510702829)"
143,153,attiva,145,Lombardia - Vallazze,Monofacciale,30,Marciapiede,2400,VIALE LOMBARDIA - INTERSEZIONE VIA VALLAZZE,"",3,2014,9.22371702740042,45.48412143497,"(45.48412143497, 9.22371702740042)"
144,154,attiva,146,Crema - Giulio Romano,Bifacciale,30,Marciapiede,4061,VIA CREMA - INTERSEZIONE VIA TREBBIA,"",5,2013,9.20273477554045,45.4480630300258,"(45.4480630300258, 9.20273477554045)"
145,155,attiva,147,Ripamonti - Bellezza,Bifacciale,30,Marciapiede,4066,VIA GIUSEPPE RIPAMONTI - INTERSEZIONE VIA GIOVANNI BELLEZZA,"",5,2012,9.19722444601767,45.4488049862148,"(45.4488049862148, 9.19722444601767)"
146,156,attiva,148,Bocconi 3 - I. Aragona,Monofacciale,33,Marciapiede,4050,VIA FERDINANDO BOCCONI,"",5,2011,9.19054142035401,45.4511752342547,"(45.4511752342547, 9.19054142035401)"
147,157,attiva,149,Bonomelli,Monofacciale,36,Marciapiede,4150,PIAZZA GEREMIA BONOMELLI,"",5,2015,9.21349817064829,45.4406552956463,"(45.4406552956463, 9.21349817064829)"
148,158,attiva,150,Sraffa,Monofacciale,36,Marciapiede,4201,VIA GIAN CARLO CASTELBARCO - INTERSEZIONE VIA ODOARDO TABACCHI,"",5,2013,9.18606984459942,45.4483381215112,"(45.4483381215112, 9.18606984459942)"
149,159,attiva,151,Balilla - Tibaldi,Monofacciale,36,Carreggiata,5207,VIA BALILLA - VIALE TIBALDI,"",5,2011,9.18264266080066,45.4446307039765,"(45.4446307039765, 9.18264266080066)"
150,160,attiva,152,San Gottardo - Gentilino,Monofacciale,36,Carreggiata,5204,VIA GENTILINO,"",5,2013,9.18009394073704,45.4489167133913,"(45.4489167133913, 9.18009394073704)"
151,161,attiva,153,Segantini - Darwin,Monofacciale,36,Marciapiede,5155,VIA GIOVANNI SEGANTINI - INTERSEZIONE VIA CARLO DARWIN,24,6,2013,9.172744667776,45.4457543778868,"(45.4457543778868, 9.172744667776)"
152,162,attiva,154,Ascanio Sforza - Pavia,Monofacciale,36,Marciapiede,5262,VIA PAVIA,"",5,2012,9.17749261681541,45.4473650127269,"(45.4473650127269, 9.17749261681541)"
153,163,attiva,155,Naviglio Pavese - Torricelli,Bifacciale,36,Marciapiede,5201,VIA ASCANIO SFORZA - INTERSEZIONE VIA EVANGELISTA TORRICELLI,"",5,2013,9.17636991814877,45.4442080282933,"(45.4442080282933, 9.17636991814877)"
154,164,attiva,156,Arcole - Argelati,Bifacciale,36,Marciapiede,5153,PIAZZA ARCOLE - INTERSEZIONE VIA GIOVANNI SEGANTINI,"",6,2013,9.1727070129327,45.4496360879833,"(45.4496360879833, 9.1727070129327)"
155,165,attiva,157,Roncaglia - Washington,Monofacciale,36,Marciapiede,6122,VIA RONCAGLIA - INTERSEZIONE VIA GIORGIO WASHINGTON,"",6,2014,9.1543483167396,45.4588018699934,"(45.4588018699934, 9.1543483167396)"
156,166,attiva,158,Naviglio Grande - Valenza,Monofacciale,36,Marciapiede,5150,RIPA DI PORTA TICINESE - FRONTE PARCO ROBERT BADEN-POWELL,"",6,2013,9.16745057414257,45.4498071842564,"(45.4498071842564, 9.16745057414257)"
157,167,attiva,159,Gorini - Strambio,Monofacciale,36,Marciapiede,3168,VIA GAETANO STRAMBIO,2-4,3,2014,9.23101716173389,45.4733888949005,"(45.4733888949005, 9.23101716173389)"
158,168,attiva,160,Zara M3,Monofacciale,36,Carreggiata,1170,VIALE ZARA - INTERSEZIONE VIA FRANCESCO ARESE,13,9,2012,9.19185266348802,45.4914930334017,"(45.4914930334017, 9.19185266348802)"
159,169,attiva,161,Coni Zugna - Solari,Monofacciale,36,Marciapiede,5111,VIA ANDREA SOLARI,"",6,2012,9.16799793536571,45.4570652694791,"(45.4570652694791, 9.16799793536571)"
160,170,attiva,162,Piola,Monofacciale,36,Marciapiede,2571,VIA GIOVANNI PACINI - INTERSEZIONE PIAZZA GABRIO PIOLA,"",3,2014,9.22465005652749,45.4806598943747,"(45.4806598943747, 9.22465005652749)"
161,171,attiva,163,Rosario,Monofacciale,36,Marciapiede,5088,PIAZZA DEL ROSARIO,"",6,2012,9.16263180961156,45.454882763688,"(45.454882763688, 9.16263180961156)"
162,172,attiva,164,Bergognone - Tortona,Monofacciale,36,Carreggiata,5004,LARGO DELLE CULTURE,"",6,2013,9.16506711939659,45.4523097691589,"(45.4523097691589, 9.16506711939659)"
163,173,attiva,165,Savona - Tolstoj,Monofacciale,36,Marciapiede,5122,VIA SAVONA - INTERSEZIONE VIA LEONE TOLSTOI,"",6,2014,9.15121223991229,45.4500096681634,"(45.4500096681634, 9.15121223991229)"
164,175,attiva,166,Dezza - Caravaggio,Monofacciale,36,Marciapiede,6103,VIA DEL CARAVAGGIO - INTERSEZIONE VIA GIUSEPPE DEZZA,"",7,2012,9.16273600788539,45.4595284909524,"(45.4595284909524, 9.16273600788539)"
165,176,attiva,167,Foppa - Caravaggio,Monofacciale,36,Marciapiede,6109,VIA VINCENZO FOPPA,17,6,2012,9.16194482773396,45.458064641068,"(45.458064641068, 9.16194482773396)"
166,177,attiva,169,Vesuvio - Lipari,Monofacciale,36,Marciapiede,6110,PIAZZA VESUVIO - INTERSEZIONE VIA STROMBOLI,"",7,2013,9.15954743786608,45.4594018921685,"(45.4594018921685, 9.15954743786608)"
167,178,attiva,170,S. M. del Carso,Monofacciale,33,Carreggiata,6200,VIA ANDREA VERGA,"",7,2011,9.16350067072644,45.4634483680903,"(45.4634483680903, 9.16350067072644)"
168,179,attiva,171,Elba - Cimarosa,Monofacciale,33,Marciapiede,6243,VIA ELBA,26,7,2012,9.15739463134994,45.4632559975899,"(45.4632559975899, 9.15739463134994)"
169,180,attiva,172,Napoli - Washington,Monofacciale,30,Marciapiede,6094,VIA COLA DI RIENZO - INTERSEZIONE VIA WASHINGTON,"",6,2014,9.15478927067963,45.4545997214765,"(45.4545997214765, 9.15478927067963)"
170,181,attiva,173,Vercelli - Cherubini,Monofacciale,36,Marciapiede,6192,VIA FRANCESCO CHERUBINI,4,7,2012,9.15943542858168,45.467010068102,"(45.467010068102, 9.15943542858168)"
171,182,attiva,174,Vercelli - Piemonte,Bifacciale,36,Marciapiede,6253,VIA MICHELANGELO BUONARROTI - INTERSEZIONE PIAZZA PIEMONTE,"",7,2013,9.15541624415499,45.4670843049298,"(45.4670843049298, 9.15541624415499)"
172,183,attiva,175,Pagano - Guido d'Arezzo,Bifacciale,36,Marciapiede,6088,VIA MARIO PAGANO - INTERSEZIONE VIA DEL BURCHIELLO,"",7,2011,9.16047042541817,45.4681849982119,"(45.4681849982119, 9.16047042541817)"
173,184,attiva,176,Buonarroti,Bifacciale,36,Marciapiede,6253,VIA MICHELANGELO BUONARROTI - INTERSEZIONE PIAZZA MICHELANGELO BUONARROTI,"",8,2013,9.15541758083377,45.4708309700999,"(45.4708309700999, 9.15541758083377)"
174,186,attiva,178,V Alpini,Monofacciale,30,Marciapiede,6346,LARGO QUINTO ALPINI,"",1,2012,9.1678075738559,45.4722453886727,"(45.4722453886727, 9.1678075738559)"
175,187,attiva,179,Giovanni XXIII,Bifacciale,36,Marciapiede,6155,VIA VINCENZO MONTI - INTERSEZIONE PIAZZA GIOVANNI XXIII,"",8,2012,9.16418762406705,45.4749300351646,"(45.4749300351646, 9.16418762406705)"
176,188,attiva,180,Canova - Sangiorgio,Monofacciale,30,Marciapiede,7238,VIA ANTONIO CANOVA,19,1,2012,9.16835765954375,45.4753176296769,"(45.4753176296769, 9.16835765954375)"
177,189,attiva,181,Sempione - Melzi d'Eril,Monofacciale,27,Marciapiede,7137,CORSO SEMPIONE,"",1,2012,9.16972869690724,45.477811607302,"(45.477811607302, 9.16972869690724)"
178,190,attiva,182,Melzi d'Eril - Cagnola,Monofacciale,36,Marciapiede,7118,VIA FRANCESCO MELZI D'ERIL,"",1,2012,9.1729192599537,45.4783084254673,"(45.4783084254673, 9.1729192599537)"
179,191,attiva,183,Domodossola FNM - Filelfo,Bifacciale,36,Marciapiede,7154,VIA FRANCESCO FILELFO - INTERSEZIONE VIA TREBAZIO,"",8,2015,9.16284888171113,45.4803855953606,"(45.4803855953606, 9.16284888171113)"
180,192,attiva,184,Porta Volta,Monofacciale,33,Marciapiede,1066,BASTIONI DI PORTA VOLTA,"",1,2011,9.18226424366632,45.4800728031693,"(45.4800728031693, 9.18226424366632)"
181,193,attiva,185,Santissima Trinita',Monofacciale,35,Marciapiede,7121,VIA LUIGI CANONICA - INTERSEZIONE VIA CESARE CESARIANO,"",1,2012,9.17632909805485,45.4780879844973,"(45.4780879844973, 9.17632909805485)"
182,194,attiva,186,Procaccini - Gramsci,Bifacciale,36,Marciapiede,7205,PIAZZA ANTONIO GRAMSCI - LATO VIA GIULIO CESARE PROCACCINI,14,8,2014,9.16834498031825,45.4819773908081,"(45.4819773908081, 9.16834498031825)"
183,195,attiva,187,Sarpi - Albertini,Bifacciale,24,Marciapiede,7377,VIA ALFREDO ALBERTINI,"",8,2011,9.17226513244498,45.481003752924,"(45.481003752924, 9.17226513244498)"
184,196,attiva,188,Sarpi - Niccolini,Monofacciale,24,Marciapiede,7210,VIA PAOLO SARPI,"",8,2011,9.17814981799761,45.4816361775104,"(45.4816361775104, 9.17814981799761)"
185,197,attiva,189,Procaccini - Cimitero Monumentale,Monofacciale,36,Marciapiede,7233,PIAZZALE CIMITERO MONUMENTALE - INTERSEZIONE VIA GIOVANNI BATTISTA NICCOLINI,"",8,2012,9.17720000460791,45.4838929362926,"(45.4838929362926, 9.17720000460791)"
186,198,attiva,190,Milizie - Tortona,Monofacciale,30,Marciapiede,5142,PIAZZALE DELLE MILIZIE - INTERSEZIONE VIA TORTONA,"",6,2015,9.15611202284366,45.4504282165945,"(45.4504282165945, 9.15611202284366)"
187,199,attiva,191,Farini - Quadrio,Monofacciale,36,Carreggiata,1115,VIA MAURIZIO QUADRIO - INTERSEZIONE VIA CARLO FARINI,"",9,2015,9.18211114460686,45.4839583329901,"(45.4839583329901, 9.18211114460686)"
188,200,attiva,192,Col di Lana - Col Moschin,Monofacciale,36,Marciapiede,5211,VIA COL MOSCHIN - INTERSEZIONE VIALE COL DI LANA,"",5,2011,9.18455421688652,45.4518116056173,"(45.4518116056173, 9.18455421688652)"
189,201,attiva,193,Garibaldi - Pepe,Bifacciale,30,Marciapiede,1126,VIA GUGLIELMO PEPE,"",9,2012,9.18504637822821,45.4867229105366,"(45.4867229105366, 9.18504637822821)"
190,202,attiva,194,Borsieri - Confalonieri,Monofacciale,36,Carreggiata,1123,VIA GAETANO DE CASTILLIA,"",9,2012,9.18838253916559,45.4854243277358,"(45.4854243277358, 9.18838253916559)"
191,203,attiva,195,Pola RL,Monofacciale,27,Marciapiede,1156,VIA POLA,14,2,2012,9.19324865991372,45.4891006075726,"(45.4891006075726, 9.19324865991372)"
192,204,attiva,196,Lagosta,Monofacciale,36,Marciapiede,1155,PIAZZALE LAGOSTA,"",9,2012,9.19084629891057,45.4890776740139,"(45.4890776740139, 9.19084629891057)"
193,205,attiva,197,Garibaldi - Sturzo,Monofacciale,30,Marciapiede,1704,VIALE LUIGI STURZO,"",9,2016,9.18850636179006,45.4838138827758,"(45.4838138827758, 9.18850636179006)"
194,207,attiva,199,Galvani - Restelli - RL,Monofacciale,27,Marciapiede,1179,VIA LUIGI GALVANI,"",9,2014,9.19668735327182,45.4876817783264,"(45.4876817783264, 9.19668735327182)"
195,208,attiva,200,P.zza Luigi di Savoia,Bifacciale,36,Marciapiede,2260,PIAZZA LUIGI DI SAVOIA,"",2,2011,9.20619783745419,45.4849713099322,"(45.4849713099322, 9.20619783745419)"
196,209,attiva,201,IV Novembre,Monofacciale,36,Marciapiede,1202,VIA GIOVANNI BATTISTA SAMMARTINI,"",2,2011,9.20373955562543,45.4873436065429,"(45.4873436065429, 9.20373955562543)"
197,210,attiva,202,Marche - Zara,Monofacciale,30,Marciapiede,1360,VIALE MARCHE - INTERSEZIONE VIALE ZARA,"",9,2018,9.19402867264323,45.4957006935816,"(45.4957006935816, 9.19402867264323)"
198,211,attiva,203,Taramelli RL,Monofacciale,36,Marciapiede,1164,VIA TORQUATO TARAMELLI,"",2,2012,9.1937689104746,45.4906578308953,"(45.4906578308953, 9.1937689104746)"
199,212,attiva,204,Valtellina - Farini,Bifacciale,36,Marciapiede,1188,VIA VALTELLINA - INTERSEZIONE VIA DELLA BOSCAIOLA,2,9,2015,9.18223528151397,45.4890493100198,"(45.4890493100198, 9.18223528151397)"
200,213,attiva,205,Teodosio - Pacini,Monofacciale,30,Marciapiede,2550,VIA TEODOSIO - INTERSEZIONE VIA GIOVANNI PACINI,"",3,2015,9.23005987358214,45.4829403461641,"(45.4829403461641, 9.23005987358214)"
201,214,attiva,206,Friuli,Monofacciale,36,Marciapiede,3199,VIA FRIULI,50,4,2013,9.21367992110094,45.4548876665146,"(45.4548876665146, 9.21367992110094)"
202,215,attiva,207,Loreto 1,Monofacciale,36,Marciapiede,2264,PIAZZALE LORETO - INTERSEZIONE VIALE ABRUZZI,"",3,2015,9.21741899942956,45.4857389191212,"(45.4857389191212, 9.21741899942956)"
203,216,attiva,208,Brianza - Venini,Bifacciale,36,Marciapiede,2263,VIALE BRIANZA - INTERSEZIONE VIA GIULIO E CORRADO VENINI,"",2,2015,9.21266792724705,45.4877880150285,"(45.4877880150285, 9.21266792724705)"
204,218,attiva,210,Aspromonte - Pecchio,Monofacciale,36,Marciapiede,2246,PIAZZA ASPROMONTE,"",3,2014,9.2193930268031,45.4839716449106,"(45.4839716449106, 9.2193930268031)"
205,219,attiva,212,Verrocchio - Juvara,Monofacciale,36,Marciapiede,3129,VIA FILIPPO JUVARA - INTERSEZIONE VIA ANDREA VERROCCHIO,"",3,2013,9.21976443563182,45.4732568781054,"(45.4732568781054, 9.21976443563182)"
206,220,attiva,213,Novelli - Carnaghi,Monofacciale,36,Marciapiede,3165,VIA DAVIDE CARNAGHI,2,3,2013,9.22057201064443,45.4708070584028,"(45.4708070584028, 9.22057201064443)"
207,221,attiva,214,Susa - Sidoli,Bifacciale,30,Marciapiede,3101,PIAZZALE SUSA,"",3,2013,9.22398080535662,45.4688693482605,"(45.4688693482605, 9.22398080535662)"
208,222,attiva,215,Politecnico,Monofacciale,36,Marciapiede,2208,PIAZZA LEONARDO DA VINCI - LATO NORD,"",3,2013,9.22615832776125,45.4786595851325,"(45.4786595851325, 9.22615832776125)"
209,223,attiva,216,Romagna - Pascoli,Monofacciale,36,Carreggiata,3132,VIA GIOVANNI PASCOLI,53,3,2013,9.22435434552514,45.4764868486404,"(45.4764868486404, 9.22435434552514)"
210,226,attiva,264,Rio De Janeiro - Sarto,Bifacciale,24,Marciapiede,3174,LARGO RIO DE JANEIRO - INTERSEZIONE VIA ANDREA DEL SARTO,"",3,2016,9.22362561140241,45.472590987662,"(45.472590987662, 9.22362561140241)"
211,227,attiva,219,Firenze,Monofacciale,30,Marciapiede,7160,VIALE TEODORICO - INTERSEZIONE PIAZZA FIRENZE,"",8,2016,9.15585510833189,45.4873787119498,"(45.4873787119498, 9.15585510833189)"
212,228,attiva,220,Sempione - Castelvetro,Bifacciale,36,Marciapiede,7137,CORSO SEMPIONE - INTERSEZIONE VIA LODOVICO CASTELVETRO (PARTERRE),"",8,,9.16251778625843,45.4835450553924,"(45.4835450553924, 9.16251778625843)"
213,229,attiva,221,Accursio - Portello,Monofacciale,36,Marciapiede,7328,VIA GROSOTTO,"",8,2015,9.14589035750313,45.4909091495159,"(45.4909091495159, 9.14589035750313)"
214,230,attiva,222,Durante - D'Aviano,Bifacciale,30,Marciapiede,2279,VIA MARCO D'AVIANO - INTERSEZIONE PIAZZA FRANCESCO DURANTE,"",2,2016,9.22210745177186,45.4887993780679,"(45.4887993780679, 9.22210745177186)"
215,231,attiva,224,VI Febbraio,Monofacciale,30,Marciapiede,6358,PIAZZA SEI FEBBRAIO,"",8,2015,9.16059430769365,45.4767878407034,"(45.4767878407034, 9.16059430769365)"
216,232,attiva,225,Chiesa - E. Filiberto,Monofacciale,30,Marciapiede,7164,PIAZZALE DAMIANO CHIESA - INTERSEZIONE VIA EMANUELE FILIBERTO,"",8,2015,9.15658299604855,45.4848166160927,"(45.4848166160927, 9.15658299604855)"
217,233,attiva,226,Lotto,Monofacciale,30,Marciapiede,6539,PIAZZALE LORENZO LOTTO,"",8,2015,9.14333442267357,45.4798691586056,"(45.4798691586056, 9.14333442267357)"
218,234,attiva,227,Zavattari - Tempesta,Monofacciale,27,Marciapiede,6537,PIAZZALE FRATELLI ZAVATTARI,4,7,2015,9.14366193006111,45.4758749570553,"(45.4758749570553, 9.14366193006111)"
219,236,attiva,229,QT8 - Isernia,Monofacciale,30,Carreggiata,6461,VIA ISERNIA - INTERSEZIONE PIAZZA SANTA MARIA NASCENTE,"",8,2015,9.13701294671877,45.4866722018219,"(45.4866722018219, 9.13701294671877)"
220,239,attiva,232,De Angeli - R. Sanzio,Monofacciale,36,Marciapiede,6276,PIAZZA ERNESTO DE ANGELI - INTERSEZIONE VIA RAFFAELLO SANZIO,"",7,2015,9.1505628868489,45.4670635305835,"(45.4670635305835, 9.1505628868489)"
221,240,attiva,233,Mac Mahon - Artieri,Monofacciale,24,Marciapiede,7221,VIA MAC MAHON - INTERSEZIONE VIA DEGLI ARTIERI,"",8,2015,9.15497735732457,45.4958776873791,"(45.4958776873791, 9.15497735732457)"
222,242,attiva,235,Certosa - Monteceneri,Monofacciale,30,Marciapiede,7174,VIALE CERTOSA - INTERSEZIONE VIALE RENATO SERRA,"",8,2018,9.1518656639509,45.4897383033252,"(45.4897383033252, 9.1518656639509)"
223,243,attiva,236,Mac Mahon - Caracciolo,Bifacciale,30,Marciapiede,7221,VIA MAC MAHON - INTERSEZIONE VIA FRANCESCO CARACCIOLO,"",8,2015,9.16101212678968,45.4912213021588,"(45.4912213021588, 9.16101212678968)"
224,244,attiva,237,Caneva - Tolentino,Monofacciale,24,Marciapiede,7183,VIA TOLENTINO - INTERSEZIONE PIAZZA CARLO CANEVA,"",8,2015,9.16073263090438,45.4881918941138,"(45.4881918941138, 9.16073263090438)"
225,245,attiva,238,Govone - Borgese,Monofacciale,27,Marciapiede,7376,VIA GIUSEPPE ANTONIO BORGESE,1,8,2015,9.16899962716074,45.4884101177523,"(45.4884101177523, 9.16899962716074)"
226,246,attiva,239,Marussig - Castelvetro,Monofacciale,30,Marciapiede,7200,VIA PIETRO MARUSSIG,3,8,2015,9.16608900030965,45.4863790663837,"(45.4863790663837, 9.16608900030965)"
227,248,attiva,241,Stuparich - Albani,Monofacciale,27,Marciapiede,6468,PIAZZA CARLO STUPARICH - INTERSEZIONE VIA FRANCESCO ALBANI,8,8,2015,9.1442206648055,45.4829208662896,"(45.4829208662896, 9.1442206648055)"
228,253,attiva,248,Teodorico - Gattamelata,Bifacciale,24,Marciapiede,7156,VIA GATTAMELATA - INTERSEZIONE VIALE TEODORICO,"",8,2015,9.15153709428658,45.484458329861,"(45.484458329861, 9.15153709428658)"
229,254,attiva,249,Vigliani - Scarampo,Monofacciale,30,Marciapiede,6422,VIA PAOLO ONORATO VIGLIANI - INTERSEZIONE VIALE LODOVICO SCARAMPO,"",8,2015,9.14823556255562,45.4824678538159,"(45.4824678538159, 9.14823556255562)"
230,255,attiva,250,Castelli - Ailanti,Monofacciale,27,Carreggiata,7284,VIA DEGLI AILANTI,3,8,2015,9.15210124029722,45.4994515783873,"(45.4994515783873, 9.15210124029722)"
231,256,attiva,251,Villapizzone FFSS - Lambruschini,Bifacciale,30,Marciapiede,7271,VIA RAFFAELE LAMBRUSCHINI,"",9,2015,9.15263149819867,45.5023805336921,"(45.5023805336921, 9.15263149819867)"
232,257,attiva,252,Bovisa - Lambruschini,Monofacciale,30,Marciapiede,7289,VIA PAOLO MARIANI,"",9,2015,9.15856547964154,45.5021069535975,"(45.5021069535975, 9.15856547964154)"
233,258,attiva,253,Bovisa Passante 1 - Alfieri,Monofacciale,30,Carreggiata,1726,PIAZZA EMILIO ALFIERI,"",9,2015,9.16078787330322,45.5027404006554,"(45.5027404006554, 9.16078787330322)"
234,259,attiva,254,Bausan - Brofferio,Monofacciale,27,Carreggiata,1465,VIA ANGELO BROFFERIO - PIAZZA GIOVANNI BAUSAN,"",9,2015,9.16480770990738,45.5026539723763,"(45.5026539723763, 9.16480770990738)"
235,260,attiva,255,Nigra - Castellini,Monofacciale,27,Carreggiata,1236,PIAZZALE COSTANTINO NIGRA,"",9,2015,9.1705908210623,45.4962626539066,"(45.4962626539066, 9.1705908210623)"
236,261,attiva,256,Lancetti Passante - Maloja,Monofacciale,30,Marciapiede,1220,VIA MALOIA - INTERSEZIONE VIALE VINCENZO LANCETTI,"",9,2015,9.17645904478891,45.4948428917748,"(45.4948428917748, 9.17645904478891)"
237,262,attiva,257,Valtellina - Aprica,Monofacciale,24,Marciapiede,1188,VIA VALTELLINA - INTERSEZIONE VIA DELL'APRICA,36,9,2015,9.1824397573764,45.4930102317714,"(45.4930102317714, 9.1824397573764)"
238,263,attiva,258,Maciachini - Marche,Monofacciale,30,Marciapiede,1361,PIAZZALE CARLO MACIACHINI - INTERSEZIONE VIA VALASSINA,"",9,2015,9.18690504560677,45.4980657511098,"(45.4980657511098, 9.18690504560677)"
239,264,attiva,259,Amendola M1,Monofacciale,36,Marciapiede,6363,PIAZZA GIOVANNI AMENDOLA,"",8,2015,9.15171093656574,45.4736368541253,"(45.4736368541253, 9.15171093656574)"
240,265,attiva,260,Baldinucci - Maffucci,Monofacciale,24,Marciapiede,1267,VIA FILIPPO BALDINUCCI - INTERSEZIONE VIA ANGIOLO MAFFUCCI,"",9,2015,9.16920845083182,45.5035016929365,"(45.5035016929365, 9.16920845083182)"
241,266,attiva,261,Imbonati - Dergano M3,Bifacciale,36,Marciapiede,1311,VIA CARLO IMBONATI,"",9,2015,9.17986293949095,45.5053901095926,"(45.5053901095926, 9.17986293949095)"
242,267,attiva,262,Livigno - Monte San Genesio,Bifacciale,30,Marciapiede,1296,VIA LIVIGNO - INTERSEZIONE VIA MONT SAN GENESIO,"",9,2015,9.17844971962096,45.5001570231608,"(45.5001570231608, 9.17844971962096)"
243,268,attiva,263,Castello,Bifacciale,30,Carreggiata,704,PIAZZA CASTELLO,"",1,2015,9.17945013256612,45.4686759328333,"(45.4686759328333, 9.17945013256612)"
244,270,attiva,266,Sauli - Battaglia,Bifacciale,30,Marciapiede,2262,VIA SOPERGA,"",2,2018,9.21330079418991,45.491078045352,"(45.491078045352, 9.21330079418991)"
245,272,attiva,265,Arduino,Monofacciale,30,Marciapiede,6365,PIAZZALE ARDUINO,"",8,2017,9.15126618595805,45.4771175319485,"(45.4771175319485, 9.15126618595805)"
246,276,attiva,270,Stelvio - Farini,Monofacciale,30,Marciapiede,1227,VIALE STELVIO - INTERSEZIONE VIA CARLO FARINI,"",9,2015,9.18496259975248,45.4947927640544,"(45.4947927640544, 9.18496259975248)"
247,286,attiva,280,Murat - Villani - Milano Sport,Monofacciale,30,Marciapiede,1316,VIA GIOACCHINO MURAT,"",9,2015,9.19064159820708,45.4996127243369,"(45.4996127243369, 9.19064159820708)"
248,287,attiva,281,Stefini - Ressi,Monofacciale,30,Carreggiata,1397,VIA ADEODATO RESSI - INTERSEZIONE VIA EVARISTO STEFINI,"",2,2016,9.20300044849266,45.496822295707,"(45.496822295707, 9.20300044849266)"
249,288,attiva,282,Dergano,Monofacciale,24,Carreggiata,1500,PIAZZA DERGANO,"",9,2015,9.17692318334397,45.5031651749659,"(45.5031651749659, 9.17692318334397)"
250,289,attiva,283,Reni - Guardi,Monofacciale,30,Carreggiata,3205,VIA GUIDO RENI - INTERSEZIONE PIAZZA FRANCESCO GUARDI,"",3,2015,9.22589229495103,45.4706418513897,"(45.4706418513897, 9.22589229495103)"
251,299,attiva,296,Gioia - Cassina de Pomm,Monofacciale,30,Carreggiata,1108,VIA MELCHIORRE GIOIA - INTERSEZIONE VIA TIRANO,"",2,2015,9.20814041576959,45.4966680175114,"(45.4966680175114, 9.20814041576959)"
252,304,attiva,301,Toscana - Leoni,Monofacciale,30,Marciapiede,4210,VIALE TOSCANA - INTERSEZIONE VIA POMPEO LEONI,"",5,2015,9.19368549165096,45.4461520665971,"(45.4461520665971, 9.19368549165096)"
253,305,attiva,302,De Angeli - Ripamonti,Monofacciale,30,Marciapiede,4326,VIA CARLO DE ANGELI - INTERSEZIONE VIA GIUSEPPE RIPAMONTI,"",5,2015,9.19837641258529,45.4433211879868,"(45.4433211879868, 9.19837641258529)"
254,306,attiva,303,Benaco - Brembo,Monofacciale,30,Marciapiede,4143,VIA BENACO - INTERSEZIONE VIA BREMBO,"",4,2016,9.21201218274661,45.4443676651093,"(45.4443676651093, 9.21201218274661)"
255,307,attiva,304,Adamello - Lorenzini,Monofacciale,30,Carreggiata,4135,VIA ADAMELLO,6,5,2015,9.20310454374651,45.4434134589654,"(45.4434134589654, 9.20310454374651)"
256,308,attiva,305,Spadolini - Centro Leoni,Monofacciale,30,Marciapiede,4325,VIA GIOVANNI SPADOLINI,"",5,2015,9.18966073021135,45.4430989151518,"(45.4430989151518, 9.18966073021135)"
257,310,attiva,307,Piazzi - Bernina,Monofacciale,24,Carreggiata,1222,VIA GIUSEPPE PIAZZI - INTERSEZIONE VIA BERNINA,"",9,2015,9.18107523359061,45.4944960524885,"(45.4944960524885, 9.18107523359061)"
258,312,attiva,309,Carlo Magno - Alcuino,Bifacciale,30,Marciapiede,7165,VIA ALCUINO - INTERSEZIONE PIAZZALE CARLO MAGNO,"",8,2015,9.15581845312145,45.4815012168794,"(45.4815012168794, 9.15581845312145)"
259,313,attiva,310,Istria M5 - F. Testi,Monofacciale,30,Marciapiede,1347,PIAZZALE ISTRIA,"",2,2015,9.1983569421288,45.5017212513752,"(45.5017212513752, 9.1983569421288)"
260,314,attiva,311,De Marchi - Lucini,Monofacciale,30,Marciapiede,1418,VIA EMILIO DE MARCHI,19,2,2016,9.2088980371485,45.500269158241,"(45.500269158241, 9.2088980371485)"
261,315,attiva,312,De Marchi - Bottelli,Monofacciale,30,Marciapiede,1418,VIA EMILIO DE MARCHI,59,2,2016,9.21134615279443,45.5033634052651,"(45.5033634052651, 9.21134615279443)"
262,316,attiva,313,Ca Granda - F.Testi,Monofacciale,30,Carreggiata,1443,VIALE CA' GRANDA - INTERSEZIONE VIALE FULVIO TESTI (LATO PARI),"",9,2015,9.20001802465614,45.5067075715084,"(45.5067075715084, 9.20001802465614)"
263,318,attiva,315,Ospedale Maggiore,Bifacciale,30,Marciapiede,1523,PIAZZA DELL'OSPEDALE MAGGIORE,"",9,2015,9.18966980375204,45.5084423613964,"(45.5084423613964, 9.18966980375204)"
264,320,attiva,317,Alserio - Cola Montano,Monofacciale,30,Marciapiede,1153,VIA ALSERIO,10,9,2016,9.18567547487256,45.4910385518198,"(45.4910385518198, 9.18567547487256)"
265,321,attiva,319,Gioia - Cagliero,Monofacciale,30,Carreggiata,1108,VIA MELCHIORRE GIOIA,124-126,2,2016,9.20594634036845,45.4935805958644,"(45.4935805958644, 9.20594634036845)"
266,323,attiva,321,Piazzale Nizza,Monofacciale,27,Marciapiede,1521,PIAZZALE NIZZA,"",9,2015,9.18877273517422,45.5034053285299,"(45.5034053285299, 9.18877273517422)"
267,324,attiva,322,Bicocca M5 - Pulci,Monofacciale,30,Carreggiata,1622,VIA LUIGI PULCI,2,9,2015,9.20597147325405,45.5141619040442,"(45.5141619040442, 9.20597147325405)"
268,325,attiva,323,Temolo - Innovazione,Monofacciale,30,Marciapiede,1732,VIA LIBERO TEMOLO - INTERSEZIONE VIALE DELL'INNOVAZIONE,1,9,2015,9.21074169367722,45.5113698598897,"(45.5113698598897, 9.21074169367722)"
269,326,attiva,324,Staz. Greco Pirelli - Cozzi,Monofacciale,30,Marciapiede,1629,PIAZZALE EGEO,"",9,2016,9.21347902926282,45.512708496231,"(45.512708496231, 9.21347902926282)"
270,327,attiva,325,Romolo M2,Bifacciale,36,Marciapiede,5463,LARGO ALBERTO ASCARI,"",6,2015,9.16760490710569,45.4435437097027,"(45.4435437097027, 9.16760490710569)"
271,328,attiva,326,Arcimboldi - Innovazione,Monofacciale,30,Marciapiede,1731,VIALE DELL'INNOVAZIONE - INTERSEZIONE VIA ETTORE FIERAMOSCA,"",9,2018,9.21390298924411,45.5158318522202,"(45.5158318522202, 9.21390298924411)"
272,329,attiva,327,Pirelli - UNI Bicocca,Monofacciale,24,Marciapiede,1727,VIALE PIERO ALBERTO PIRELLI,22,9,2016,9.21287588033878,45.5186002417705,"(45.5186002417705, 9.21287588033878)"
273,330,attiva,328,Bussero - F. Testi,Monofacciale,30,Carreggiata,1618,VIA GOFFREDO DA BUSSERO - INTERSEZIONE VIALE FULVIO TESTI,"",9,2015,9.20694646102134,45.5187558418327,"(45.5187558418327, 9.20694646102134)"
274,331,attiva,329,Chiese - F. Testi,Monofacciale,30,Marciapiede,1627,VIA CHIESE - INTERSEZIONE VIALE FULVIO TESTI,"",9,2015,9.21034041235498,45.5223459874443,"(45.5223459874443, 9.21034041235498)"
275,332,attiva,330,Suzzani - Arezzo,Monofacciale,30,Marciapiede,1446,VIALE GIOVANNI SUZZANI,280-282,9,2015,9.20938459235708,45.526870965994,"(45.526870965994, 9.20938459235708)"
276,336,attiva,334,Molino Dorino M1,Monofacciale,30,Marciapiede,,PARCHEGGIO NVPR STAZIONE M.M. MOLINO DORINO - LATO VIA FRANCESCO CILEA,"",8,2015,9.09423595630277,45.5051119189702,"(45.5051119189702, 9.09423595630277)"
277,338,attiva,267,Sardegna - Sicilia,Monofacciale,30,Marciapiede,6265,VIA SARDEGNA - INTERSEZIONE PIAZZA SICILIA,27,7,2018,9.15282093502147,45.4638267820929,"(45.4638267820929, 9.15282093502147)"
278,339,attiva,268,Lunigiana-Sammartini,Bifacciale,30,Marciapiede,1214,VIALE LUNIGIANA - INTERSEZIONE VIA SAMMARTINI,"",2,2019,9.20722507042734,45.4908047735104,"(45.4908047735104, 9.20722507042734)"
279,340,attiva,198,Garibaldi 2 - Sturzo,Bifacciale,24,Marciapiede,1704,VIALE LUIGI STURZO,"",9,2018,9.18831205685516,45.4836051076518,"(45.4836051076518, 9.18831205685516)"
280,342,attiva,340,Corvetto - Polesine,Bifacciale,30,Marciapiede,4174,PIAZZALE LUIGI EMANUELE CORVETTO,"",4,2019,9.22398094395068,45.439681005921,"(45.439681005921, 9.22398094395068)"
281,343,attiva,341,Cuoco - Monte Cimone,Monofacciale,30,Marciapiede,3333,VIA MONTE CIMONE - INTERSEZIONE PIAZZALE VINCENZO CUOCO,"",4,2019,9.2250002180769,45.450471572941,"(45.450471572941, 9.2250002180769)"
282,344,attiva,342,Bologna,Monofacciale,30,Marciapiede,4172,PIAZZALE BOLOGNA - INTERSEZIONE VIALE PUGLIE,"",4,2019,9.22363075488482,45.4446024371442,"(45.4446024371442, 9.22363075488482)"
283,345,attiva,343,Ortles - Ripamonti,Monofacciale,30,Marciapiede,4133,VIALE ORTLES,2,5,2019,9.2005142061438,45.4388559096155,"(45.4388559096155, 9.2005142061438)"
284,346,attiva,350,Beccaria 2 - Bersaglieri,Monofacciale,33,Marciapiede,657,LARGO DEI BERSAGLIERI - INTERSEZIONE PIAZZA CESARE BECCARIA,"",1,2019,9.19500692554195,45.4633089154003,"(45.4633089154003, 9.19500692554195)"
285,347,attiva,351,Duomo 2 - Foscolo,Monofacciale,33,Carreggiata,1,PIAZZA DEL DUOMO,"",1,2019,9.19097884462536,45.4647459717866,"(45.4647459717866, 9.19097884462536)"
286,348,attiva,352,Cordusio,Monofacciale,30,Carreggiata,626,PIAZZA CORDUSIO,"",1,2019,9.18621423963653,45.4654754363329,"(45.4654754363329, 9.18621423963653)"
287,350,attiva,354,Foro Buonaparte,Monofacciale,30,Marciapiede,711,FORO BONAPARTE,33,1,2019,9.17844863061629,45.4676718216792,"(45.4676718216792, 9.17844863061629)"
288,352,attiva,356,Giambellino - Odazio,Monofacciale,30,Marciapiede,5395,LARGO GIAMBELLINO,"",6,2020,9.1352126205592,45.4471657604131,"(45.4471657604131, 9.1352126205592)"
289,353,attiva,357,Ciceri Visconti - Martini,Monofacciale,36,Carreggiata,3220,VIA LAURA CICERI VISCONTI,2,4,2019,9.22022443197232,45.4553766318151,"(45.4553766318151, 9.22022443197232)"
290,354,attiva,358,Insubria - Bruno,Monofacciale,27,Carreggiata,3221,PIAZZA INSUBRIA - INTERSEZIONE VIA EMILIO FAA' DI BRUNO,"",4,2019,9.2211571842039,45.4524446535068,"(45.4524446535068, 9.2211571842039)"
291,355,attiva,359,Tertulliano - Caroncini,Monofacciale,27,Marciapiede,4094,VIA TERTULLIANO,35,4,2019,9.21801478529387,45.4493190225136,"(45.4493190225136, 9.21801478529387)"
292,356,attiva,274,Passerini - Belloveso,Monofacciale,30,Carreggiata,1589,VIA GIAN BATTISTA PASSERINI - INTERSEZIONE VIA RICCARDO BAUER,5,9,2020,9.19338364292723,45.5153455165897,"(45.5153455165897, 9.19338364292723)"
293,357,attiva,362,Bottini 2 - Lambrate M2,Monofacciale,24,Marciapiede,2572,PIAZZA ENRICO BOTTINI,3,3,2019,9.23570333379701,45.4850033635189,"(45.4850033635189, 9.23570333379701)"
294,358,attiva,363,Tripoli,Bifacciale,30,Marciapiede,6130,PIAZZALE TRIPOLI - LATO VIALE MISURATA,"",7,2019,9.14977973964432,45.459593636374,"(45.459593636374, 9.14977973964432)"
295,359,attiva,364,Fezzan - Forli',Monofacciale,30,Marciapiede,6677,VIA FEZZAN - INTERSEZIONE VIALE CATERINA DA FORLI',"",6,2020,9.14622537863905,45.4596262265068,"(45.4596262265068, 9.14622537863905)"
296,361,attiva,366,Carlini - D'Alviano,Monofacciale,30,Carreggiata,6819,VIA FRANCESCO CARLINI - INTERSEZIONE VIA BARTOLOMEO D'ALVIANO,"",6,2019,9.14215754147811,45.4530313356414,"(45.4530313356414, 9.14215754147811)"
297,362,attiva,367,Velasquez - Osoppo,Monofacciale,27,Marciapiede,6595,PIAZZALE DIEGO VELASQUEZ - INTERSEZIONE VIA OSOPPO,"",7,2020,9.14121042137412,45.467587355933,"(45.467587355933, 9.14121042137412)"
298,363,attiva,368,Tolstoi - Lorenteggio,Monofacciale,30,Marciapiede,5133,VIA LEONE TOLSTOI,53,6,2020,9.14929603527088,45.4538286576586,"(45.4538286576586, 9.14929603527088)"
299,364,attiva,369,San Giminiano - Tuberose,Monofacciale,30,Marciapiede,6613,VIALE SAN GIMINIANO,19,6,2019,9.13611044277812,45.4588424662214,"(45.4588424662214, 9.13611044277812)"
300,365,attiva,370,Primaticcio - Corba,Monofacciale,30,Marciapiede,6646,VIA FRANCESCO PRIMATICCIO - INTERSEZIONE VIA CASCINA CORBA,"",6,2019,9.13335386219688,45.4530558834786,"(45.4530558834786, 9.13335386219688)"
301,367,attiva,372,Solderini - Provincia di Milano,Monofacciale,30,Carreggiata,6675,VIA LUIGI SODERINI,"",6,2019,9.14221881251799,45.4566187179599,"(45.4566187179599, 9.14221881251799)"
302,368,attiva,373,Brunelleschi - Giambellino,Monofacciale,24,Marciapiede,5384,VIA FILIPPO BRUNELLESCHI,1,6,2020,9.14443342680693,45.4490399168567,"(45.4490399168567, 9.14443342680693)"
303,371,attiva,376,Tirana - San Cristoforo,Monofacciale,36,Marciapiede,5378,PIAZZA TIRANA - LATO STAZIONE DI MILANO SAN CRISTOFORO,19,6,2020,9.13029862666393,45.4429848874869,"(45.4429848874869, 9.13029862666393)"
304,372,attiva,377,Inganni - Lorenteggio,Monofacciale,24,Marciapiede,6672,VIA ANGELO INGANNI - INTERSEZIONE VIA LORENTEGGIO,"",6,2020,9.1279069042277,45.4473552543959,"(45.4473552543959, 9.1279069042277)"
305,373,attiva,378,San Gimignano - Soderini,Monofacciale,27,Marciapiede,6613,VIALE SAN GIMINIANO,9/A,6,2020,9.135783677845,45.4542579071839,"(45.4542579071839, 9.135783677845)"
306,374,attiva,379,Inganni - Corba,Monofacciale,30,Marciapiede,6672,VIA ANGELO INGANNI - INTERSEZIONE VIA CASCINA CORBA,"",6,2020,9.1259212394121,45.4510253925048,"(45.4510253925048, 9.1259212394121)"
307,375,attiva,380,Inganni M1 - Zurigo,Monofacciale,30,Marciapiede,6672,VIA ANGELO INGANNI,"",6,2019,9.12279386957162,45.457070173699,"(45.457070173699, 9.12279386957162)"
308,376,attiva,381,Primaticcio - Legioni Romane,Monofacciale,30,Marciapiede,6646,VIA FRANCESCO PRIMATICCIO - INTERSEZIONE VIALE LEGIONI ROMANE,"",6,2019,9.12965121817428,45.459146815276,"(45.459146815276, 9.12965121817428)"
309,377,attiva,382,Ciclamini - Palazzetto del Ghiaccio,Monofacciale,30,Carreggiata,6693,VIA DEI CICLAMINI,18,6,2020,9.12879429787685,45.4545337484797,"(45.4545337484797, 9.12879429787685)"
310,383,attiva,383,Angilberto - Comacchio,Monofacciale,30,Carreggiata,4278,PIAZZA ANGILBERTO II,"",4,2018,9.21748611068234,45.4372139822724,"(45.4372139822724, 9.21748611068234)"
311,384,attiva,384,Gabrio Rosa,Monofacciale,30,Marciapiede,4288,PIAZZALE GABRIELE ROSA,"",4,2019,9.22423751853595,45.4372055725148,"(45.4372055725148, 9.22423751853595)"
312,385,attiva,385,Ortles - Orobia,Monofacciale,30,Carreggiata,4133,VIALE ORTLES,53,5,2019,9.20670563507377,45.4399669470415,"(45.4399669470415, 9.20670563507377)"
313,386,attiva,318,Gioia - Carissimi,Monofacciale,36,Carreggiata,1108,VIA MELCHIORRE GIOIA,93,2,2015,9.20222598692054,45.4906938782845,"(45.4906938782845, 9.20222598692054)"
314,387,attiva,168,Piazza Carbonari,Monofacciale,30,Marciapiede,1219,VIA GIACOMO CARISSIMI,"",2,2011,9.1991505963679,45.4925719006175,"(45.4925719006175, 9.1991505963679)"
315,388,attiva,211,Bernini,Monofacciale,27,Marciapiede,2201,PIAZZA GIAN LORENZO BERNINI,"",3,2013,9.22150885899943,45.4787563317092,"(45.4787563317092, 9.22150885899943)"
316,389,attiva,361,Bottini 1 - Lambrate M2,Monofacciale,33,Marciapiede,2572,PIAZZA ENRICO BOTTINI,"",3,2019,9.23686903879113,45.484462416735,"(45.484462416735, 9.23686903879113)"
317,391,attiva,500,Cascina Merlata - UpTown,Monofacciale,30,Marciapiede,7614,VIA PIER PAOLO PASOLINI,"",8,2021,9.10344971565342,45.5071111637332,"(45.5071111637332, 9.10344971565342)"
318,392,attiva,501,Cascina Merlata - Social Village,Bifacciale,30,Marciapiede,7614,VIA PIER PAOLO PASOLINI,"",8,2021,9.10078911971841,45.5116936343468,"(45.5116936343468, 9.10078911971841)"
319,393,attiva,503,Bovio - Crespi,Monofacciale,39,Marciapiede,1507,VIA GIOVANNI BOVIO - INTERSEZIONE VIA BENIGNO CRESPI,"",9,2021,9.18452979949276,45.5029420204726,"(45.5029420204726, 9.18452979949276)"
320,394,attiva,063,Sant'Ambrogio,Monofacciale,30,Marciapiede,643,PIAZZA SANT'AMBROGIO,"",1,2008,9.17458690801843,45.4622555085821,"(45.4622555085821, 9.17458690801843)"
321,395,attiva,064,Diaz,Monofacciale,39,Carreggiata,339,PIAZZA DIAZ ARMANDO,6,1,2008,9.18965117128139,45.4621624711804,"(45.4621624711804, 9.18965117128139)"
322,396,attiva,502,UniCredit - Lampugnano M1,Bifacciale,36,Marciapiede,6891,VIA LIVIO CAMBI,"",8,2021,9.12625514582878,45.489537319048,"(45.489537319048, 9.12625514582878)"
323,397,attiva,V1,Apulejo - Campania,Virtuale,20,Carreggiata,3265,VIA APULEJO - INTERSEZIONE VIALE CAMPANIA,"",4,2021,9.22443406233413,45.4626385742104,"(45.4626385742104, 9.22443406233413)"
324,398,attiva,V2,Hajech,Virtuale,20,Carreggiata,3091,VIA CAMILLO HAJECH,20-22,4,2021,9.2185021802409,45.4646127148941,"(45.4646127148941, 9.2185021802409)"
325,399,attiva,V3,Commenda - Berchet,Virtuale,20,Carreggiata,3146,VIA DELLA COMMENDA,"",1,2021,9.19938370562119,45.4554785482603,"(45.4554785482603, 9.19938370562119)"
